[
  {
    "id": "dungeness_beach",
    "name": "Dungeness Beach",
    "region": "South East England",
    "county": "Kent",
    "country": "England",
    "nearestTown": "Lydd",
    "markType": "Shingle Beach",
    "latitude": "50.9131° N",
    "longitude": "0.9662° E",
    "targetableSpecies": ["cod", "whiting", "bass", "plaice", "sole", "mackerel", "dogfish_lesser_spotted", "thornback_ray"]
  },
  {
    "id": "samphire_hoe",
    "name": "Samphire Hoe",
    "region": "South East England",
    "county": "Kent",
    "country": "England",
    "nearestTown": "Dover",
    "markType": "Sea Wall",
    "latitude": "51.1056° N",
    "longitude": "1.2750° E",
    "targetableSpecies": ["cod", "bass", "ballan_wrasse", "pollack", "mackerel", "conger_eel", "dogfish_lesser_spotted"]
  },
  {
    "id": "southend_pier",
    "name": "Southend Pier",
    "region": "East of England",
    "county": "Essex",
    "country": "England",
    "nearestTown": "Southend-on-Sea",
    "markType": "Pier",
    "latitude": "51.5120° N",
    "longitude": "0.7180° E",
    "targetableSpecies": ["bass", "thornback_ray", "whiting", "flounder", "dogfish_lesser_spotted", "sole"]
  },
  {
    "id": "chesil_beach_abbotsbury",
    "name": "Chesil Beach (Abbotsbury)",
    "region": "South West England",
    "county": "Dorset",
    "country": "England",
    "nearestTown": "Abbotsbury",
    "markType": "Shingle Beach",
    "latitude": "50.6592° N",
    "longitude": "-2.6163° W",
    "targetableSpecies": ["cod", "plaice", "thornback_ray", "mackerel", "bass", "bream_black", "whiting", "smooth_hound", "bull_huss"]
  },
  {
    "id": "penlee_point",
    "name": "Penlee Point",
    "region": "South West England",
    "county": "Cornwall",
    "country": "England",
    "nearestTown": "Rame",
    "markType": "Rock Mark",
    "latitude": "50.3181° N",
    "longitude": "-4.1889° W",
    "targetableSpecies": ["pollack", "ballan_wrasse", "bass", "mackerel", "conger_eel", "bull_huss", "dogfish_lesser_spotted"]
  },
  {
    "id": "st_ives_harbour",
    "name": "St Ives Harbour Wall",
    "region": "South West England",
    "county": "Cornwall",
    "country": "England",
    "nearestTown": "St Ives",
    "markType": "Harbour Wall",
    "latitude": "50.2131° N",
    "longitude": "-5.4768° W",
    "targetableSpecies": ["thick_lipped_grey_mullet", "pollack", "ballan_wrasse", "mackerel", "bass", "flounder", "conger_eel"]
  },
  {
    "id": "orford_ness",
    "name": "Orford Ness",
    "region": "East of England",
    "county": "Suffolk",
    "country": "England",
    "nearestTown": "Orford",
    "markType": "Shingle Spit",
    "latitude": "52.0814° N",
    "longitude": "1.5586° E",
    "targetableSpecies": ["bass", "cod", "whiting", "dogfish_lesser_spotted", "thornback_ray"]
  },
  {
    "id": "roker_pier",
    "name": "Roker Pier",
    "region": "North East England",
    "county": "Tyne and Wear",
    "country": "England",
    "nearestTown": "Sunderland",
    "markType": "Pier",
    "latitude": "54.9155° N",
    "longitude": "-1.3533° W",
    "targetableSpecies": ["cod", "mackerel", "coalfish", "pollack", "flounder", "whiting", "dab"]
  },
  {
    "id": "south_shields_pier",
    "name": "South Shields Pier",
    "region": "North East England",
    "county": "Tyne and Wear",
    "country": "England",
    "nearestTown": "South Shields",
    "markType": "Pier",
    "latitude": "55.0112° N",
    "longitude": "-1.4115° W",
    "targetableSpecies": ["cod", "coalfish", "mackerel", "whiting", "plaice", "pollack", "dab"]
  },
  {
    "id": "whitby_pier",
    "name": "Whitby Pier",
    "region": "North East England",
    "county": "North Yorkshire",
    "country": "England",
    "nearestTown": "Whitby",
    "markType": "Pier",
    "latitude": "54.4945° N",
    "longitude": "-0.6180° W",
    "targetableSpecies": ["cod", "coalfish", "pollack", "mackerel", "whiting", "billet"]
  },
  {
    "id": "blackpool_north_pier",
    "name": "Blackpool North Pier",
    "region": "North West England",
    "county": "Lancashire",
    "country": "England",
    "nearestTown": "Blackpool",
    "markType": "Pier",
    "latitude": "53.8200° N",
    "longitude": "-3.0590° W",
    "targetableSpecies": ["bass", "flounder", "dab", "whiting", "dogfish_lesser_spotted", "thornback_ray"]
  },
  {
    "id": "mull_of_galloway",
    "name": "Mull of Galloway",
    "region": "Scotland",
    "county": "Dumfries & Galloway",
    "country": "Scotland",
    "nearestTown": "Drummore",
    "markType": "Rock Mark",
    "latitude": "54.6351° N",
    "longitude": "-4.8563° W",
    "targetableSpecies": ["pollack", "ballan_wrasse", "coalfish", "mackerel", "dogfish_lesser_spotted", "cod", "ling"]
  },
  {
    "id": "st_abbs_head",
    "name": "St Abbs Head",
    "region": "Scotland",
    "county": "Scottish Borders",
    "country": "Scotland",
    "nearestTown": "St Abbs",
    "markType": "Rock Mark",
    "latitude": "55.9161° N",
    "longitude": "-2.1386° W",
    "targetableSpecies": ["cod", "pollack", "ballan_wrasse", "coalfish"]
  },
  {
    "id": "arbroath_cliffs",
    "name": "Arbroath Cliffs",
    "region": "Scotland",
    "county": "Angus",
    "country": "Scotland",
    "nearestTown": "Arbroath",
    "markType": "Rock Mark",
    "latitude": "56.5650° N",
    "longitude": "-2.5400° W",
    "targetableSpecies": ["cod", "pollack", "ballan_wrasse", "coalfish", "mackerel"]
  },
  {
    "id": "oxwich_bay",
    "name": "Oxwich Bay",
    "region": "Wales",
    "county": "Swansea",
    "country": "Wales",
    "nearestTown": "Oxwich",
    "markType": "Sandy Beach",
    "latitude": "51.5561° N",
    "longitude": "-4.1594° W",
    "targetableSpecies": ["bass", "thornback_ray", "smooth_hound", "flounder", "plaice", "dab"]
  },
  {
    "id": "penmon_point",
    "name": "Penmon Point",
    "region": "Wales",
    "county": "Anglesey",
    "country": "Wales",
    "nearestTown": "Beaumaris",
    "markType": "Rock Mark",
    "latitude": "53.3109° N",
    "longitude": "-4.0409° W",
    "targetableSpecies": ["bass", "pollack", "mackerel", "ballan_wrasse", "dogfish_lesser_spotted", "conger_eel"]
  },
  {
    "id": "st_govans_head",
    "name": "St Govan's Head",
    "region": "Wales",
    "county": "Pembrokeshire",
    "country": "Wales",
    "nearestTown": "Bosherston",
    "markType": "Rock Mark",
    "latitude": "51.5975° N",
    "longitude": "-4.9133° W",
    "targetableSpecies": ["bass", "pollack", "ballan_wrasse", "mackerel", "conger_eel", "bull_huss"]
  },
  {
    "id": "llangennith_beach",
    "name": "Llangennith Beach",
    "region": "Wales",
    "county": "Swansea",
    "country": "Wales",
    "nearestTown": "Llangennith",
    "markType": "Sandy Beach",
    "latitude": "51.5950° N",
    "longitude": "-4.2900° W",
    "targetableSpecies": ["bass", "golden_grey_mullet", "flounder", "thornback_ray"]
  },
  {
    "id": "moelfre",
    "name": "Moelfre",
    "region": "Wales",
    "county": "Anglesey",
    "country": "Wales",
    "nearestTown": "Moelfre",
    "markType": "Rock Mark",
    "latitude": "53.3522° N",
    "longitude": "-4.2375° W",
    "targetableSpecies": ["mackerel", "pollack", "ballan_wrasse", "conger_eel", "dogfish_lesser_spotted"]
  },
  {
    "id": "aberystwyth_harbour",
    "name": "Aberystwyth Harbour Arm",
    "region": "Wales",
    "county": "Ceredigion",
    "country": "Wales",
    "nearestTown": "Aberystwyth",
    "markType": "Harbour Wall",
    "latitude": "52.4130° N",
    "longitude": "-4.0895° W",
    "targetableSpecies": ["bass", "thornback_ray", "bull_huss", "dogfish_lesser_spotted", "flounder", "dab"]
  },
  {
    "id": "brighton_marina",
    "name": "Brighton Marina",
    "region": "South East England",
    "county": "East Sussex",
    "country": "England",
    "nearestTown": "Brighton",
    "markType": "Marina Arm",
    "latitude": "50.8115° N",
    "longitude": "-0.1030° W",
    "targetableSpecies": ["mackerel", "bass", "bream_black", "ballan_wrasse", "mullet_thick_lipped", "conger_eel"]
  },
  {
    "id": "clacton_pier",
    "name": "Clacton Pier",
    "region": "East of England",
    "county": "Essex",
    "country": "England",
    "nearestTown": "Clacton-on-Sea",
    "markType": "Pier",
    "latitude": "51.7845° N",
    "longitude": "1.1540° E",
    "targetableSpecies": ["bass", "thornback_ray", "whiting", "cod", "dogfish_lesser_spotted", "sole"]
  },
  {
    "id": "cromer_pier",
    "name": "Cromer Pier",
    "region": "East of England",
    "county": "Norfolk",
    "country": "England",
    "nearestTown": "Cromer",
    "markType": "Pier",
    "latitude": "52.9330° N",
    "longitude": "1.3000° E",
    "targetableSpecies": ["cod", "bass", "whiting", "dab", "flounder", "mackerel"]
  },
  {
    "id": "lands_end",
    "name": "Land's End",
    "region": "South West England",
    "county": "Cornwall",
    "country": "England",
    "nearestTown": "Sennen",
    "markType": "Rock Mark",
    "latitude": "50.0663° N",
    "longitude": "-5.7145° W",
    "targetableSpecies": ["pollack", "ballan_wrasse", "bass", "mackerel", "conger_eel", "bull_huss"]
  },
  {
    "id": "ilfracombe_pier",
    "name": "Ilfracombe Pier",
    "region": "South West England",
    "county": "Devon",
    "country": "England",
    "nearestTown": "Ilfracombe",
    "markType": "Pier",
    "latitude": "51.2090° N",
    "longitude": "-4.1150° W",
    "targetableSpecies": ["mackerel", "pollack", "bass", "dogfish_lesser_spotted", "conger_eel", "smooth_hound"]
  },
  {
    "id": "filey_brigg",
    "name": "Filey Brigg",
    "region": "North East England",
    "county": "North Yorkshire",
    "country": "England",
    "nearestTown": "Filey",
    "markType": "Rock Mark",
    "latitude": "54.2180° N",
    "longitude": "-0.2600° W",
    "targetableSpecies": ["cod", "pollack", "coalfish", "ballan_wrasse", "mackerel", "billet"]
  },
  {
    "id": "st_bees_head",
    "name": "St Bees Head",
    "region": "North West England",
    "county": "Cumbria",
    "country": "England",
    "nearestTown": "Whitehaven",
    "markType": "Rock Mark",
    "latitude": "54.5000° N",
    "longitude": "-3.6300° W",
    "targetableSpecies": ["pollack", "ballan_wrasse", "cod", "mackerel", "bass", "thornback_ray"]
  },
  {
    "id": "neist_point",
    "name": "Neist Point",
    "region": "Scotland",
    "county": "Highland",
    "country": "Scotland",
    "nearestTown": "Glendale",
    "markType": "Rock Mark",
    "latitude": "57.4230° N",
    "longitude": "-6.7800° W",
    "targetableSpecies": ["pollack", "coalfish", "mackerel", "cod", "ling", "haddock"]
  },
  {
    "id": "loch_etive",
    "name": "Loch Etive (Bonawe)",
    "region": "Scotland",
    "county": "Argyll and Bute",
    "country": "Scotland",
    "nearestTown": "Taynuilt",
    "markType": "Sea Loch",
    "latitude": "56.4400° N",
    "longitude": "-5.2300° W",
    "targetableSpecies": ["thornback_ray", "spurdog", "dogfish_lesser_spotted", "cod", "whiting"]
  },
  {
    "id": "worms_head",
    "name": "Worm's Head",
    "region": "Wales",
    "county": "Swansea",
    "country": "Wales",
    "nearestTown": "Rhossili",
    "markType": "Rock Mark",
    "latitude": "51.5640° N",
    "longitude": "-4.3300° W",
    "targetableSpecies": ["bass", "pollack", "ballan_wrasse", "mackerel", "conger_eel", "bull_huss"]
  },
  {
    "id": "llandudno_pier",
    "name": "Llandudno Pier",
    "region": "Wales",
    "county": "Conwy",
    "country": "Wales",
    "nearestTown": "Llandudno",
    "markType": "Pier",
    "latitude": "53.3300° N",
    "longitude": "-3.8300° W",
    "targetableSpecies": ["mackerel", "pollack", "bass", "dogfish_lesser_spotted", "whiting", "dab", "coalfish"]
  },
  {
    "id": "portrush_harbour",
    "name": "Portrush Harbour",
    "region": "Northern Ireland",
    "county": "County Antrim",
    "country": "Northern Ireland",
    "nearestTown": "Portrush",
    "markType": "Harbour Wall",
    "latitude": "55.2060° N",
    "longitude": "-6.6580° W",
    "targetableSpecies": ["pollack", "coalfish", "mackerel", "dogfish_lesser_spotted", "flounder", "cod"]
  },
  {
    "id": "deal_pier",
    "name": "Deal Pier",
    "region": "South East England",
    "county": "Kent",
    "country": "England",
    "nearestTown": "Deal",
    "markType": "Pier",
    "latitude": "51.2240° N",
    "longitude": "1.4050° E",
    "targetableSpecies": ["bass", "cod", "whiting", "thornback_ray", "mackerel", "sole", "dogfish_lesser_spotted"]
  },
  {
    "id": "aldeburgh_beach",
    "name": "Aldeburgh Beach",
    "region": "East of England",
    "county": "Suffolk",
    "country": "England",
    "nearestTown": "Aldeburgh",
    "markType": "Shingle Beach",
    "latitude": "52.1500° N",
    "longitude": "1.6000° E",
    "targetableSpecies": ["cod", "bass", "whiting", "sole", "thornback_ray", "dogfish_lesser_spotted"]
  },
  {
    "id": "start_point",
    "name": "Start Point",
    "region": "South West England",
    "county": "Devon",
    "country": "England",
    "nearestTown": "Salcombe",
    "markType": "Rock Mark",
    "latitude": "50.2220° N",
    "longitude": "-3.6400° W",
    "targetableSpecies": ["bass", "pollack", "ballan_wrasse", "mackerel", "bull_huss", "conger_eel"]
  },
  {
    "id": "porthcawl_pier",
    "name": "Porthcawl Pier",
    "region": "Wales",
    "county": "Bridgend",
    "country": "Wales",
    "nearestTown": "Porthcawl",
    "markType": "Pier",
    "latitude": "51.4780° N",
    "longitude": "-3.7010° W",
    "targetableSpecies": ["conger_eel", "bass", "thornback_ray", "smooth_hound", "cod", "dogfish_lesser_spotted"]
  },
  {
    "id": "eyemouth_harbour",
    "name": "Eyemouth Harbour",
    "region": "Scotland",
    "county": "Scottish Borders",
    "country": "Scotland",
    "nearestTown": "Eyemouth",
    "markType": "Harbour Wall",
    "latitude": "55.8740° N",
    "longitude": "-2.0880° W",
    "targetableSpecies": ["cod", "coalfish", "flounder", "mackerel", "pollack", "whiting"]
  },
  {
    "id": "seahouses_north_pier",
    "name": "Seahouses North Pier",
    "region": "North East England",
    "county": "Northumberland",
    "country": "England",
    "nearestTown": "Seahouses",
    "markType": "Pier",
    "latitude": "55.5850° N",
    "longitude": "-1.6490° W",
    "targetableSpecies": ["cod", "coalfish", "pollack", "flounder", "mackerel", "whiting"]
  },
  {
    "id": "walney_island",
    "name": "Walney Island (Earnse Bay)",
    "region": "North West England",
    "county": "Cumbria",
    "country": "England",
    "nearestTown": "Barrow-in-Furness",
    "markType": "Sandy Beach",
    "latitude": "54.1300° N",
    "longitude": "-3.2700° W",
    "targetableSpecies": ["bass", "plaice", "flounder", "dab", "thornback_ray", "cod"]
  },
  {
    "id": "portland_bill",
    "name": "Portland Bill",
    "region": "South West England",
    "county": "Dorset",
    "country": "England",
    "nearestTown": "Portland",
    "markType": "Rock Mark",
    "latitude": "50.5150° N",
    "longitude": "-2.4580° W",
    "targetableSpecies": ["bass", "pollack", "ballan_wrasse", "conger_eel", "bull_huss", "mackerel"]
  },
  {
    "id": "newquay_harbour",
    "name": "Newquay Harbour",
    "region": "South West England",
    "county": "Cornwall",
    "country": "England",
    "nearestTown": "Newquay",
    "markType": "Harbour Wall",
    "latitude": "50.4150° N",
    "longitude": "-5.0900° W",
    "targetableSpecies": ["mackerel", "pollack", "ballan_wrasse", "mullet_thick_lipped", "bass", "conger_eel"]
  },
  {
    "id": "aberdeen_beach",
    "name": "Aberdeen Beach",
    "region": "Scotland",
    "county": "Aberdeen City",
    "country": "Scotland",
    "nearestTown": "Aberdeen",
    "markType": "Sandy Beach",
    "latitude": "57.1550° N",
    "longitude": "-2.0750° W",
    "targetableSpecies": ["cod", "flounder", "dab", "bass", "turbot", "coalfish"]
  },
  {
    "id": "penarth_pier",
    "name": "Penarth Pier",
    "region": "Wales",
    "county": "Vale of Glamorgan",
    "country": "Wales",
    "nearestTown": "Penarth",
    "markType": "Pier",
    "latitude": "51.4370° N",
    "longitude": "-3.1680° W",
    "targetableSpecies": ["cod", "whiting", "bass", "conger_eel", "thornback_ray", "smooth_hound"]
  },
  {
    "id": "bangor_pier",
    "name": "Bangor Pier (Garth Pier)",
    "region": "Wales",
    "county": "Gwynedd",
    "country": "Wales",
    "nearestTown": "Bangor",
    "markType": "Pier",
    "latitude": "53.2350° N",
    "longitude": "-4.1180° W",
    "targetableSpecies": ["bass", "mackerel", "dogfish_lesser_spotted", "whiting", "dab", "thornback_ray"]
  },
  {
    "id": "belfast_lough",
    "name": "Belfast Lough (Carrickfergus)",
    "region": "Northern Ireland",
    "county": "County Antrim",
    "country": "Northern Ireland",
    "nearestTown": "Carrickfergus",
    "markType": "Sea Lough",
    "latitude": "54.7150° N",
    "longitude": "-5.8000° W",
    "targetableSpecies": ["cod", "whiting", "coalfish", "dogfish_lesser_spotted", "flounder", "pollack"]
  },
  {
    "id": "soutwold_pier",
    "name": "Southwold Pier",
    "region": "East of England",
    "county": "Suffolk",
    "country": "England",
    "nearestTown": "Southwold",
    "markType": "Pier",
    "latitude": "52.3280° N",
    "longitude": "1.6850° E",
    "targetableSpecies": ["bass", "cod", "whiting", "thornback_ray", "sole", "dogfish_lesser_spotted"]
  },
  {
    "id": "lyme_regis_cobb",
    "name": "Lyme Regis (The Cobb)",
    "region": "South West England",
    "county": "Dorset",
    "country": "England",
    "nearestTown": "Lyme Regis",
    "markType": "Harbour Wall",
    "latitude": "50.7190° N",
    "longitude": "-2.9350° W",
    "targetableSpecies": ["mackerel", "pollack", "ballan_wrasse", "conger_eel", "bass", "dogfish_lesser_spotted"]
  },
  {
    "id": "flamborough_head",
    "name": "Flamborough Head",
    "region": "North East England",
    "county": "East Riding of Yorkshire",
    "country": "England",
    "nearestTown": "Flamborough",
    "markType": "Rock Mark",
    "latitude": "54.1160° N",
    "longitude": "-0.0800° W",
    "targetableSpecies": ["cod", "pollack", "coalfish", "ballan_wrasse", "mackerel", "ling"]
  },
  {
    "id": "ullapool_pier",
    "name": "Ullapool Pier",
    "region": "Scotland",
    "county": "Highland",
    "country": "Scotland",
    "nearestTown": "Ullapool",
    "markType": "Pier",
    "latitude": "57.8960° N",
    "longitude": "-5.1600° W",
    "targetableSpecies": ["mackerel", "coalfish", "pollack", "cod", "haddock", "dogfish_lesser_spotted"]
  },
  {
    "id": "tenby_harbour",
    "name": "Tenby Harbour",
    "region": "Wales",
    "county": "Pembrokeshire",
    "country": "Wales",
    "nearestTown": "Tenby",
    "markType": "Harbour Wall",
    "latitude": "51.6710° N",
    "longitude": "-4.6980° W",
    "targetableSpecies": ["bass", "flounder", "mullet_thick_lipped", "mackerel", "pollack", "ballan_wrasse"]
  },
  {
    "id": "donaghadee_harbour",
    "name": "Donaghadee Harbour",
    "region": "Northern Ireland",
    "county": "County Down",
    "country": "Northern Ireland",
    "nearestTown": "Donaghadee",
    "markType": "Harbour Wall",
    "latitude": "54.6460° N",
    "longitude": "-5.5300° W",
    "targetableSpecies": ["pollack", "coalfish", "mackerel", "cod", "ballan_wrasse", "dogfish_lesser_spotted"]
  },
  {
    "id": "sunderland_point",
    "name": "Sunderland Point",
    "region": "North West England",
    "county": "Lancashire",
    "country": "England",
    "nearestTown": "Overton",
    "markType": "Estuary",
    "latitude": "54.0400° N",
    "longitude": "-2.8900° W",
    "targetableSpecies": ["flounder", "bass", "eel", "whiting", "cod", "thornback_ray"]
  },
  {
    "id": "skegness_beach",
    "name": "Skegness Beach",
    "region": "East Midlands",
    "county": "Lincolnshire",
    "country": "England",
    "nearestTown": "Skegness",
    "markType": "Sandy Beach",
    "latitude": "53.1450° N",
    "longitude": "0.3500° E",
    "targetableSpecies": ["bass", "whiting", "dab", "flounder", "cod", "thornback_ray"]
  },
  {
    "id": "lizard_point",
    "name": "Lizard Point",
    "region": "South West England",
    "county": "Cornwall",
    "country": "England",
    "nearestTown": "The Lizard",
    "markType": "Rock Mark",
    "latitude": "49.9590° N",
    "longitude": "-5.2100° W",
    "targetableSpecies": ["pollack", "ballan_wrasse", "bass", "conger_eel", "bull_huss", "mackerel"]
  },
  {
    "id": "fraserburgh_harbour",
    "name": "Fraserburgh Harbour",
    "region": "Scotland",
    "county": "Aberdeenshire",
    "country": "Scotland",
    "nearestTown": "Fraserburgh",
    "markType": "Harbour Wall",
    "latitude": "57.6950° N",
    "longitude": "-2.0000° W",
    "targetableSpecies": ["cod", "coalfish", "flounder", "mackerel", "pollack", "whiting"]
  },
  {
    "id": "barry_island",
    "name": "Barry Island (The Bendricks)",
    "region": "Wales",
    "county": "Vale of Glamorgan",
    "country": "Wales",
    "nearestTown": "Barry",
    "markType": "Rock Mark",
    "latitude": "51.3900° N",
    "longitude": "-3.2500° W",
    "targetableSpecies": ["bass", "conger_eel", "smooth_hound", "thornback_ray", "cod", "whiting"]
  },
  {
    "id": "portstewart_strand",
    "name": "Portstewart Strand",
    "region": "Northern Ireland",
    "county": "County Londonderry",
    "country": "Northern Ireland",
    "nearestTown": "Portstewart",
    "markType": "Sandy Beach",
    "latitude": "55.1600° N",
    "longitude": "-6.7700° W",
    "targetableSpecies": ["bass", "flounder", "turbot", "dogfish_lesser_spotted", "seatrout"]
  },
  {
    "id": "herne_bay_pier",
    "name": "Herne Bay Pier",
    "region": "South East England",
    "county": "Kent",
    "country": "England",
    "nearestTown": "Herne Bay",
    "markType": "Pier",
    "latitude": "51.3750° N",
    "longitude": "1.1280° E",
    "targetableSpecies": ["bass", "thornback_ray", "whiting", "dogfish_lesser_spotted", "sole", "mackerel"]
  },
  {
    "id": "weymouth_harbour",
    "name": "Weymouth Harbour",
    "region": "South West England",
    "county": "Dorset",
    "country": "England",
    "nearestTown": "Weymouth",
    "markType": "Harbour Wall",
    "latitude": "50.6080° N",
    "longitude": "-2.4500° W",
    "targetableSpecies": ["mullet_thick_lipped", "bass", "pollack", "pouting", "flounder", "conger_eel"]
  },
  {
    "id": "saltburn_pier",
    "name": "Saltburn Pier",
    "region": "North East England",
    "county": "Redcar and Cleveland",
    "country": "England",
    "nearestTown": "Saltburn-by-the-Sea",
    "markType": "Pier",
    "latitude": "54.5870° N",
    "longitude": "-0.9750° W",
    "targetableSpecies": ["cod", "whiting", "coalfish", "flounder", "dab", "mackerel"]
  },
  {
    "id": "oban_harbour",
    "name": "Oban Harbour",
    "region": "Scotland",
    "county": "Argyll and Bute",
    "country": "Scotland",
    "nearestTown": "Oban",
    "markType": "Harbour Wall",
    "latitude": "56.4150° N",
    "longitude": "-5.4750° W",
    "targetableSpecies": ["pollack", "coalfish", "mackerel", "dogfish_lesser_spotted", "whiting", "haddock"]
  },
  {
    "id": "burry_port_harbour",
    "name": "Burry Port Harbour",
    "region": "Wales",
    "county": "Carmarthenshire",
    "country": "Wales",
    "nearestTown": "Burry Port",
    "markType": "Harbour Wall",
    "latitude": "51.6800° N",
    "longitude": "-4.2500° W",
    "targetableSpecies": ["bass", "flounder", "mullet_thick_lipped", "dogfish_lesser_spotted", "whiting", "conger_eel"]
  },
  {
    "id": "portpatrick_harbour",
    "name": "Portpatrick Harbour",
    "region": "Scotland",
    "county": "Dumfries & Galloway",
    "country": "Scotland",
    "nearestTown": "Portpatrick",
    "markType": "Harbour Wall",
    "latitude": "54.8420° N",
    "longitude": "-5.1180° W",
    "targetableSpecies": ["pollack", "coalfish", "ballan_wrasse", "mackerel", "dogfish_lesser_spotted", "cod"]
  },
  {
    "id": "sennen_cove",
    "name": "Sennen Cove",
    "region": "South West England",
    "county": "Cornwall",
    "country": "England",
    "nearestTown": "Sennen",
    "markType": "Sandy Beach",
    "latitude": "50.0750° N",
    "longitude": "-5.6950° W",
    "targetableSpecies": ["bass", "plaice", "turbot", "ray_blonde", "ray_small_eyed", "thornback_ray"]
  },
  {
    "id": "cleethorpes_beach",
    "name": "Cleethorpes Beach",
    "region": "Yorkshire and the Humber",
    "county": "North East Lincolnshire",
    "country": "England",
    "nearestTown": "Cleethorpes",
    "markType": "Sandy Beach",
    "latitude": "53.5600° N",
    "longitude": "-0.0200° W",
    "targetableSpecies": ["whiting", "cod", "flounder", "dab", "bass", "thornback_ray"]
  },
  {
    "id": "holyhead_breakwater",
    "name": "Holyhead Breakwater",
    "region": "Wales",
    "county": "Anglesey",
    "country": "Wales",
    "nearestTown": "Holyhead",
    "markType": "Breakwater",
    "latitude": "53.3250° N",
    "longitude": "-4.6400° W",
    "targetableSpecies": ["pollack", "ballan_wrasse", "mackerel", "bull_huss", "conger_eel", "dogfish_lesser_spotted"]
  },
  {
    "id": "isle_of_skye_uig",
    "name": "Isle of Skye (Uig Pier)",
    "region": "Scotland",
    "county": "Highland",
    "country": "Scotland",
    "nearestTown": "Uig",
    "markType": "Pier",
    "latitude": "57.5880° N",
    "longitude": "-6.3650° W",
    "targetableSpecies": ["mackerel", "pollack", "coalfish", "dogfish_lesser_spotted", "cod", "haddock"]
  },
  {
    "id": "new_brighton_pier",
    "name": "New Brighton Pier",
    "region": "North West England",
    "county": "Merseyside",
    "country": "England",
    "nearestTown": "Wallasey",
    "markType": "Pier",
    "latitude": "53.4400° N",
    "longitude": "-3.0350° W",
    "targetableSpecies": ["cod", "whiting", "dab", "flounder", "bass", "thornback_ray"]
  },
  {
    "id": "plymouth_sound",
    "name": "Plymouth Sound (Mount Batten)",
    "region": "South West England",
    "county": "Devon",
    "country": "England",
    "nearestTown": "Plymouth",
    "markType": "Breakwater",
    "latitude": "50.3600° N",
    "longitude": "-4.1400° W",
    "targetableSpecies": ["mackerel", "pollack", "bass", "ballan_wrasse", "garfish", "bream_black"]
  },
  {
    "id": "llanddwyn_island",
    "name": "Llanddwyn Island",
    "region": "Wales",
    "county": "Anglesey",
    "country": "Wales",
    "nearestTown": "Newborough",
    "markType": "Rock Mark",
    "latitude": "53.1380° N",
    "longitude": "-4.4100° W",
    "targetableSpecies": ["bass", "pollack", "ballan_wrasse", "bull_huss", "thornback_ray", "conger_eel"]
  },
  {
    "id": "lossiemouth_east_beach",
    "name": "Lossiemouth East Beach",
    "region": "Scotland",
    "county": "Moray",
    "country": "Scotland",
    "nearestTown": "Lossiemouth",
    "markType": "Sandy Beach",
    "latitude": "57.7200° N",
    "longitude": "-3.2700° W",
    "targetableSpecies": ["bass", "flounder", "turbot", "cod", "seatrout", "coalfish"]
  },
  {
    "id": "bognor_regis_pier",
    "name": "Bognor Regis Pier",
    "region": "South East England",
    "county": "West Sussex",
    "country": "England",
    "nearestTown": "Bognor Regis",
    "markType": "Pier",
    "latitude": "50.7800° N",
    "longitude": "-0.6750° W",
    "targetableSpecies": ["bass", "bream_black", "mackerel", "thornback_ray", "smooth_hound", "plaice"]
  },
  {
    "id": "torquay_harbour",
    "name": "Torquay Harbour",
    "region": "South West England",
    "county": "Devon",
    "country": "England",
    "nearestTown": "Torquay",
    "markType": "Harbour Wall",
    "latitude": "50.4600° N",
    "longitude": "-3.5250° W",
    "targetableSpecies": ["mackerel", "pollack", "ballan_wrasse", "mullet_thick_lipped", "pouting", "bass"]
  },
  {
    "id": "hartlepool_heugh_pier",
    "name": "Hartlepool Heugh Pier",
    "region": "North East England",
    "county": "County Durham",
    "country": "England",
    "nearestTown": "Hartlepool",
    "markType": "Pier",
    "latitude": "54.6950° N",
    "longitude": "-1.1750° W",
    "targetableSpecies": ["cod", "coalfish", "whiting", "flounder", "mackerel", "pollack"]
  },
  {
    "id": "gairloch_beach",
    "name": "Gairloch Beach",
    "region": "Scotland",
    "county": "Highland",
    "country": "Scotland",
    "nearestTown": "Gairloch",
    "markType": "Sandy Beach",
    "latitude": "57.7250° N",
    "longitude": "-5.7000° W",
    "targetableSpecies": ["pollack", "mackerel", "dogfish_lesser_spotted", "flounder", "dab", "coalfish"]
  },
  {
    "id": "newport_parrog",
    "name": "Newport Parrog",
    "region": "Wales",
    "county": "Pembrokeshire",
    "country": "Wales",
    "nearestTown": "Newport",
    "markType": "Estuary",
    "latitude": "52.0200° N",
    "longitude": "-4.8400° W",
    "targetableSpecies": ["bass", "flounder", "mullet_thick_lipped", "seatrout", "salmon", "whiting"]
  },
  {
    "id": "strangford_lough",
    "name": "Strangford Lough (Portaferry)",
    "region": "Northern Ireland",
    "county": "County Down",
    "country": "Northern Ireland",
    "nearestTown": "Portaferry",
    "markType": "Sea Lough",
    "latitude": "54.3800° N",
    "longitude": "-5.5500° W",
    "targetableSpecies": ["pollack", "coalfish", "cod", "whiting", "thornback_ray", "dogfish_lesser_spotted"]
  },
  {
    "id": "folkestone_harbour_arm",
    "name": "Folkestone Harbour Arm",
    "region": "South East England",
    "county": "Kent",
    "country": "England",
    "nearestTown": "Folkestone",
    "markType": "Harbour Wall",
    "latitude": "51.0780° N",
    "longitude": "1.1880° E",
    "targetableSpecies": ["bass", "mackerel", "pollack", "ballan_wrasse", "cod", "dogfish_lesser_spotted"]
  },
  {
    "id": "paignton_pier",
    "name": "Paignton Pier",
    "region": "South West England",
    "county": "Devon",
    "country": "England",
    "nearestTown": "Paignton",
    "markType": "Pier",
    "latitude": "50.4350° N",
    "longitude": "-3.5550° W",
    "targetableSpecies": ["mackerel", "pollack", "garfish", "bass", "whiting", "pouting"]
  },
  {
    "id": "amble_pier",
    "name": "Amble Pier",
    "region": "North East England",
    "county": "Northumberland",
    "country": "England",
    "nearestTown": "Amble",
    "markType": "Pier",
    "latitude": "55.3350° N",
    "longitude": "-1.5700° W",
    "targetableSpecies": ["cod", "coalfish", "flounder", "mackerel", "pollack", "dab"]
  },
  {
    "id": "stonehaven_harbour",
    "name": "Stonehaven Harbour",
    "region": "Scotland",
    "county": "Aberdeenshire",
    "country": "Scotland",
    "nearestTown": "Stonehaven",
    "markType": "Harbour Wall",
    "latitude": "56.9600° N",
    "longitude": "-2.2000° W",
    "targetableSpecies": ["cod", "coalfish", "pollack", "mackerel", "ballan_wrasse", "flounder"]
  },
  {
    "id": "aberdaron_beach",
    "name": "Aberdaron Beach",
    "region": "Wales",
    "county": "Gwynedd",
    "country": "Wales",
    "nearestTown": "Aberdaron",
    "markType": "Sandy Beach",
    "latitude": "52.8050° N",
    "longitude": "-4.7150° W",
    "targetableSpecies": ["bass", "pollack", "bull_huss", "thornback_ray", "mackerel", "bream_black"]
  },
  {
    "id": "giants_causeway",
    "name": "Giant's Causeway Coast",
    "region": "Northern Ireland",
    "county": "County Antrim",
    "country": "Northern Ireland",
    "nearestTown": "Bushmills",
    "markType": "Rock Mark",
    "latitude": "55.2400° N",
    "longitude": "-6.5100° W",
    "targetableSpecies": ["pollack", "coalfish", "ballan_wrasse", "cod", "mackerel", "ling"]
  },
  {
    "id": "lowestoft_south_pier",
    "name": "Lowestoft South Pier",
    "region": "East of England",
    "county": "Suffolk",
    "country": "England",
    "nearestTown": "Lowestoft",
    "markType": "Pier",
    "latitude": "52.4700° N",
    "longitude": "1.7550° E",
    "targetableSpecies": ["cod", "whiting", "bass", "sole", "flounder", "thornback_ray"]
  },
  {
    "id": "mevagissey_harbour",
    "name": "Mevagissey Harbour",
    "region": "South West England",
    "county": "Cornwall",
    "country": "England",
    "nearestTown": "Mevagissey",
    "markType": "Harbour Wall",
    "latitude": "50.2700° N",
    "longitude": "-4.7850° W",
    "targetableSpecies": ["mackerel", "pollack", "ballan_wrasse", "conger_eel", "mullet_thick_lipped", "bass"]
  },
  {
    "id": "scarborough_marine_drive",
    "name": "Scarborough Marine Drive",
    "region": "North East England",
    "county": "North Yorkshire",
    "country": "England",
    "nearestTown": "Scarborough",
    "markType": "Sea Wall",
    "latitude": "54.2900° N",
    "longitude": "-0.3900° W",
    "targetableSpecies": ["cod", "pollack", "coalfish", "mackerel", "whiting", "ballan_wrasse"]
  },
  {
    "id": "kyle_of_tongue",
    "name": "Kyle of Tongue",
    "region": "Scotland",
    "county": "Highland",
    "country": "Scotland",
    "nearestTown": "Tongue",
    "markType": "Sea Loch",
    "latitude": "58.5300° N",
    "longitude": "-4.4200° W",
    "targetableSpecies": ["seatrout", "salmon", "flounder", "pollack", "coalfish", "cod"]
  },
  {
    "id": "cardiff_barrage",
    "name": "Cardiff Barrage",
    "region": "Wales",
    "county": "Cardiff",
    "country": "Wales",
    "nearestTown": "Cardiff",
    "markType": "Barrage",
    "latitude": "51.4500° N",
    "longitude": "-3.1600° W",
    "targetableSpecies": ["bass", "mullet_thick_lipped", "flounder", "conger_eel", "whiting", "cod"]
  },
  {
    "id": "isle_of_man_peel",
    "name": "Isle of Man (Peel Breakwater)",
    "region": "Isle of Man",
    "county": "Isle of Man",
    "country": "Isle of Man",
    "nearestTown": "Peel",
    "markType": "Breakwater",
    "latitude": "54.2250° N",
    "longitude": "-4.7000° W",
    "targetableSpecies": ["mackerel", "pollack", "coalfish", "ballan_wrasse", "callig", "cod"]
  },
  {
    "id": "teignmouth_pier",
    "name": "Teignmouth Pier",
    "region": "South West England",
    "county": "Devon",
    "country": "England",
    "nearestTown": "Teignmouth",
    "markType": "Pier",
    "latitude": "50.5450° N",
    "longitude": "-3.4900° W",
    "targetableSpecies": ["mackerel", "garfish", "bass", "plaice", "whiting", "dogfish_lesser_spotted"]
  },
  {
    "id": "berwick_breakwater",
    "name": "Berwick Breakwater",
    "region": "North East England",
    "county": "Northumberland",
    "country": "England",
    "nearestTown": "Berwick-upon-Tweed",
    "markType": "Breakwater",
    "latitude": "55.7750° N",
    "longitude": "-1.9850° W",
    "targetableSpecies": ["cod", "coalfish", "pollack", "mackerel", "flounder", "whiting"]
  },
  {
    "id": "stornoway_harbour",
    "name": "Stornoway Harbour",
    "region": "Scotland",
    "county": "Western Isles",
    "country": "Scotland",
    "nearestTown": "Stornoway",
    "markType": "Harbour Wall",
    "latitude": "58.2080° N",
    "longitude": "-6.3850° W",
    "targetableSpecies": ["pollack", "coalfish", "mackerel", "cod", "haddock", "whiting"]
  },
  {
    "id": "solva_harbour",
    "name": "Solva Harbour",
    "region": "Wales",
    "county": "Pembrokeshire",
    "country": "Wales",
    "nearestTown": "Solva",
    "markType": "Harbour Wall",
    "latitude": "51.8700° N",
    "longitude": "-5.1900° W",
    "targetableSpecies": ["bass", "pollack", "ballan_wrasse", "mackerel", "mullet_thick_lipped", "flounder"]
  },
  {
    "id": "isle_of_wight_sandown",
    "name": "Isle of Wight (Sandown Pier)",
    "region": "South East England",
    "county": "Isle of Wight",
    "country": "England",
    "nearestTown": "Sandown",
    "markType": "Pier",
    "latitude": "50.6550° N",
    "longitude": "-1.1500° W",
    "targetableSpecies": ["bass", "bream_black", "mackerel", "thornback_ray", "smooth_hound", "plaice"]
  },
  {
    "id": "falmouth_pendennis",
    "name": "Falmouth (Pendennis Point)",
    "region": "South West England",
    "county": "Cornwall",
    "country": "England",
    "nearestTown": "Falmouth",
    "markType": "Rock Mark",
    "latitude": "50.1450° N",
    "longitude": "-5.0500° W",
    "targetableSpecies": ["pollack", "ballan_wrasse", "mackerel", "bass", "garfish", "conger_eel"]
  },
  {
    "id": "bridlington_harbour",
    "name": "Bridlington Harbour",
    "region": "Yorkshire and the Humber",
    "county": "East Riding of Yorkshire",
    "country": "England",
    "nearestTown": "Bridlington",
    "markType": "Harbour Wall",
    "latitude": "54.0800° N",
    "longitude": "-0.1900° W",
    "targetableSpecies": ["cod", "whiting", "flounder", "dab", "mackerel", "pollack"]
  },
  {
    "id": "dunnet_head",
    "name": "Dunnet Head",
    "region": "Scotland",
    "county": "Highland",
    "country": "Scotland",
    "nearestTown": "Thurso",
    "markType": "Rock Mark",
    "latitude": "58.6700° N",
    "longitude": "-3.3750° W",
    "targetableSpecies": ["cod", "pollack", "coalfish", "ling", "ballan_wrasse", "tusk"]
  },
  {
    "id": "porthmadog_cob",
    "name": "Porthmadog (The Cob)",
    "region": "Wales",
    "county": "Gwynedd",
    "country": "Wales",
    "nearestTown": "Porthmadog",
    "markType": "Sea Wall",
    "latitude": "52.9250° N",
    "longitude": "-4.1300° W",
    "targetableSpecies": ["bass", "flounder", "mullet_thick_lipped", "dogfish_lesser_spotted", "whiting", "thornback_ray"]
  },
  {
    "id": "bude_breakwater",
    "name": "Bude Breakwater",
    "region": "South West England",
    "county": "Cornwall",
    "country": "England",
    "nearestTown": "Bude",
    "markType": "Breakwater",
    "latitude": "50.8300° N",
    "longitude": "-4.5550° W",
    "targetableSpecies": ["bass", "mackerel", "pollack", "flounder", "mullet_thick_lipped", "ballan_wrasse"]
  },
  {
    "id": "cairnryan_pier",
    "name": "Cairnryan Pier",
    "region": "Scotland",
    "county": "Dumfries & Galloway",
    "country": "Scotland",
    "nearestTown": "Cairnryan",
    "markType": "Pier",
    "latitude": "54.9750° N",
    "longitude": "-5.0300° W",
    "targetableSpecies": ["dogfish_lesser_spotted", "thornback_ray", "whiting", "cod", "pollack", "coalfish"]
  },
  {
    "id": "saundersfoot_harbour",
    "name": "Saundersfoot Harbour",
    "region": "Wales",
    "county": "Pembrokeshire",
    "country": "Wales",
    "nearestTown": "Saundersfoot",
    "markType": "Harbour Wall",
    "latitude": "51.7080° N",
    "longitude": "-4.7000° W",
    "targetableSpecies": ["bass", "flounder", "mullet_thick_lipped", "mackerel", "pollack", "ballan_wrasse"]
  }
]
